[
  {
    "hubId": "sokcho",
    "settlements": [
      {
        "placeId": "sokcho-seorak-dong",
        "name": "설악동",
        "name_en": "Seorak-dong",
        "featureType": "locality",
        "lat": 38.175,
        "lng": 128.522,
        "mapboxId": null,
        "aliases": []
      },
      {
        "placeId": "sokcho-nohak-dong",
        "name": "노학동",
        "name_en": "Nohak-dong",
        "featureType": "locality",
        "lat": 38.192,
        "lng": 128.603,
        "mapboxId": null,
        "aliases": []
      },
      {
        "placeId": "sokcho-cheongho-dong",
        "name": "청호동",
        "name_en": "Cheongho-dong",
        "featureType": "locality",
        "lat": 38.201,
        "lng": 128.574,
        "mapboxId": null,
        "aliases": []
      }
    ]
  },
  {
    "hubId": "paris",
    "settlements": [
      {
        "placeId": "paris-versailles",
        "name": "베르사유",
        "name_en": "Versailles",
        "featureType": "place",
        "lat": 48.8049,
        "lng": 2.1204,
        "mapboxId": null,
        "aliases": ["베르사이유"]
      },
      {
        "placeId": "paris-saint-denis",
        "name": "생드니",
        "name_en": "Saint-Denis",
        "featureType": "place",
        "lat": 48.9362,
        "lng": 2.3574,
        "mapboxId": null,
        "aliases": []
      },
      {
        "placeId": "paris-boulogne-billancourt",
        "name": "불로뉴비양쿠르",
        "name_en": "Boulogne-Billancourt",
        "featureType": "place",
        "lat": 48.8396,
        "lng": 2.2399,
        "mapboxId": null,
        "aliases": ["불로뉴"]
      }
    ]
  }
]
